[{"organisation_type": "hospitals", "name": "BMI The London Independent Hospital", "coordinates": {"lat": 51.5197486877441, "lon": -0.0469740852713585}, "ods_code": "NT422", "choices_id": "18444", "issues": ["A test problem"]}, {"organisation_type": "hospitals", "name": "Great Ormond Street Hospital Central London Site", "coordinates": {"lat": 51.5218505859375, "lon": -0.120400071144104}, "ods_code": "RP401", "choices_id": "41403", "issues": []}, {"organisation_type": "hospitals", "name": "London Road Community Hospital", "coordinates": {"lat": 52.9139404296875, "lon": -1.46905291080475}, "ods_code": "RTGFA", "choices_id": "41980", "issues": []}, {"organisation_type": "hospitals", "name": "London Road Transitional Care", "coordinates": {"lat": 52.9139404296875, "lon": -1.46905291080475}, "ods_code": "RTG29", "choices_id": "41979", "issues": []}, {"organisation_type": "hospitals", "name": "Mile End Hospital", "coordinates": {"lat": 51.5241966247559, "lon": -0.0439007543027401}, "ods_code": "5C414", "choices_id": "3", "issues": []}, {"organisation_type": "hospitals", "name": "North East London NHS Treatment Centre", "coordinates": {"lat": 51.5799522399902, "lon": 0.111487664282322}, "ods_code": "NTP15", "choices_id": "18660", "issues": []}, {"organisation_type": "hospitals", "name": "Priory Hospital North London", "coordinates": {"lat": 51.6315307617188, "lon": -0.11875943094492}, "ods_code": "NTN15", "choices_id": "18632", "issues": []}, {"organisation_type": "hospitals", "name": "Royal National Orthopaedic Hospital (Bolsover Street)", "coordinates": {"lat": 51.522216796875, "lon": -0.143448770046234}, "ods_code": "RAN02", "choices_id": "40088", "issues": []}, {"organisation_type": "hospitals", "name": "Savernake Hospital Site", "coordinates": {"lat": 51.4151496887207, "lon": -1.70515739917755}, "ods_code": "5QK49", "choices_id": "2615", "issues": []}, {"organisation_type": "hospitals", "name": "The London Chest Hospital", "coordinates": {"lat": 51.5315055847168, "lon": -0.0507964491844177}, "ods_code": "R1H83", "choices_id": "39958", "issues": []}, {"organisation_type": "gppractices", "name": "LONDON FIELDS MEDICAL CENTRE", "coordinates": {"lat": 51.536190032959, "lon": -0.0621318891644478}, "ods_code": null, "choices_id": "12702", "issues": ["A test problem"]}, {"organisation_type": "gppractices", "name": "London Road Medical Practice ", "coordinates": {"lat": 51.3877410888672, "lon": -0.112965397536755}, "ods_code": null, "choices_id": "14368", "issues": []}, {"organisation_type": "gppractices", "name": "London Road Medical Practice ", "coordinates": {"lat": 51.3877410888672, "lon": -0.112965397536755}, "ods_code": null, "choices_id": "14369", "issues": []}, {"organisation_type": "gppractices", "name": "North West London Medical Centre", "coordinates": {"lat": 51.5309600830078, "lon": -0.184904158115387}, "ods_code": null, "choices_id": "12103", "issues": []}, {"organisation_type": "gppractices", "name": "Sw London Nhs Trust", "coordinates": {"lat": 51.3840675354004, "lon": -0.164853468537331}, "ods_code": null, "choices_id": "14549", "issues": []}, {"organisation_type": "gppractices", "name": "The London Lane Clinic", "coordinates": {"lat": 51.4145126342773, "lon": 0.00750016607344151}, "ods_code": null, "choices_id": "13735", "issues": []}, {"organisation_type": "gppractices", "name": "The North London Health Centre", "coordinates": {"lat": 51.617057800293, "lon": -0.113579921424389}, "ods_code": null, "choices_id": "12904", "issues": []}, {"organisation_type": "gppractices", "name": "WEST LONDON MEDICAL CENTRE", "coordinates": {"lat": 51.5249328613281, "lon": -0.454712122678757}, "ods_code": null, "choices_id": "12078", "issues": []}]